{
  "updatedAt": "2026-01-30",
  "about_he": "רק מקומות שהם 100% טבעוניים (מסעדות/חנויות). עדכנו פרטים אם משהו השתנה.",
  "about_en": "Only places that are 100% vegan (restaurants/shops). Please verify hours and update if something changes.",
  "places": [
  {
    "id": "teva-haochel-kfar-saba",
    "type": "restaurant",
    "typeLabel_he": "מסעדה",
    "name": "Teva Haochel",
    "name_he": "טבע האוכל",
    "city": "Kfar Saba",
    "city_he": "כפר סבא",
    "region": "Center",
    "region_he": "מרכז",
    "address": "https://maps.app.goo.gl/KxEsphADn7ExJ7nd9",
    "address_he": "ויצמן 140, כפר סבא",
    "website": "",
    "instagram": "",
    "notes_en": "100% vegan home-style dishes",
    "notes_he": "מסעדה 100% טבעונית בסגנון ביתי",
    "lat": 32.175,
    "lng": 34.9069
  },
  {
    "id": "otentivi-dimona",
    "type": "shop",
    "typeLabel_he": "חנות",
    "name": "Otentivi",
    "name_he": "אותנטבעי",
    "city": "Dimona",
    "city_he": "דימונה",
    "region": "South",
    "region_he": "דרום",
    "address": "HaPoalim 16, Beit Moran, Dimona industrial area",
    "address_he": "הפועלים 16, בית מורן, אזור תעשייה דימונה",
    "website": "https://otentivi.com/",
    "instagram": "",
    "notes_en": "Vegan factory/deli & catering",
    "notes_he": "מפעל/מעדניה + קייטרינג טבעוני",
    "lat": 31.0708,
    "lng": 35.0327
  },
  {
    "id": "kale-herzliya",
    "type": "restaurant",
    "typeLabel_he": "מסעדה",
    "name": "Kale",
    "name_he": "קייל",
    "city": "Herzliya",
    "city_he": "הרצליה",
    "region": "Center",
    "region_he": "מרכז",
    "address": "HaPoel 36, Herzliya",
    "address_he": "הפועל 36, הרצליה",
    "website": "",
    "instagram": "",
    "notes_en": "Vegan organic kitchen (delivery/pickup)",
    "notes_he": "מטבח אורגני טבעוני (משלוחים/איסוף)",
    "lat": 32.1624,
    "lng": 34.8447
  },
  {
    "id": "tevale-tlv-bograshov",
    "type": "restaurant",
    "typeLabel_he": "מסעדה",
    "name": "Tevale",
    "name_he": "טבעל׳ה",
    "city": "Tel Aviv-Yafo",
    "city_he": "תל אביב-יפו",
    "region": "Center",
    "region_he": "מרכז",
    "address": "Bograshov 106, Tel Aviv-Yafo",
    "address_he": "בוגרשוב 106, תל אביב",
    "website": "",
    "instagram": "",
    "notes_en": "Vegan restaurant (juices, sandwiches, etc.)",
    "notes_he": "מסעדה טבעונית עם מיצים, שייקים, כריכים ועוד",
    "lat": 32.0853,
    "lng": 34.7818
  },
  {
    "id": "tevale-kfar-saba",
    "type": "restaurant",
    "typeLabel_he": "מסעדה",
    "name": "Tevale",
    "name_he": "טבעל׳ה",
    "city": "Kfar Saba",
    "city_he": "כפר סבא",
    "region": "Center",
    "region_he": "מרכז",
    "address": "Weizman 54, Kfar Saba",
    "address_he": "ויצמן 54, כפר סבא",
    "website": "",
    "instagram": "",
    "notes_en": "Kfar Saba branch",
    "notes_he": "סניף כפר סבא",
    "lat": 32.175,
    "lng": 34.9069
  },
  {
    "id": "badra-rehovot",
    "type": "restaurant",
    "typeLabel_he": "מסעדה",
    "name": "Badra",
    "name_he": "בדרה",
    "city": "Rehovot",
    "city_he": "רחובות",
    "region": "Center",
    "region_he": "מרכז",
    "address": "Herzl 173, Rehovot",
    "address_he": "הרצל 173, רחובות",
    "website": "",
    "instagram": "",
    "notes_en": "Vegan hummus & home-style food",
    "notes_he": "חומוסייה/אוכל טבעוני באווירה כפרית",
    "lat": 31.8948,
    "lng": 34.8093
  },
  {
    "id": "mitz-marak-givatayim",
    "type": "restaurant",
    "typeLabel_he": "מסעדה",
    "name": "Mitz Marak",
    "name_he": "מיץ מרק",
    "city": "Givatayim",
    "city_he": "גבעתיים",
    "region": "Center",
    "region_he": "מרכז",
    "address": "Katzenelson 49, Givatayim",
    "address_he": "כצנלסון 49, גבעתיים",
    "website": "",
    "instagram": "",
    "notes_en": "Vegan soups, stews & juices",
    "notes_he": "מיצים, מרקים ותבשילים טבעוניים",
    "lat": 32.0684,
    "lng": 34.811
  },
  {
    "id": "yulis-lunch-box-haifa",
    "type": "restaurant",
    "typeLabel_he": "מסעדה",
    "name": "Yuli's Lunch Box",
    "name_he": "יוליס לנץ׳ בוקס",
    "city": "Haifa",
    "city_he": "חיפה",
    "region": "North",
    "region_he": "צפון",
    "address": "Shivat Tsiyon 34, Haifa",
    "address_he": "שיבת ציון 34, חיפה",
    "website": "",
    "instagram": "",
    "notes_en": "Vegan lunch spot",
    "notes_he": "מסעדה טבעונית (פתוח בעיקר לצהריים)",
    "lat": 32.794,
    "lng": 34.9896
  },
  {
    "id": "green-shack-tlv",
    "type": "restaurant",
    "typeLabel_he": "מסעדה",
    "name": "Green Shack",
    "name_he": "גרין שאק",
    "city": "Tel Aviv-Yafo",
    "city_he": "תל אביב-יפו",
    "region": "Center",
    "region_he": "מרכז",
    "address": "HaRav Yedidya Frenkel 18, Tel Aviv-Yafo",
    "address_he": "הרב ידידיה פרנקל 18, תל אביב",
    "website": "",
    "instagram": "",
    "notes_en": "Vegan resto-bar in Florentin",
    "notes_he": "בר-מסעדה טבעוני בפלורנטין",
    "lat": 32.0853,
    "lng": 34.7818
  },
  {
    "id": "khudari-tlv",
    "type": "restaurant",
    "typeLabel_he": "מסעדה",
    "name": "Khudari",
    "name_he": "קודארי",
    "city": "Tel Aviv-Yafo",
    "city_he": "תל אביב-יפו",
    "region": "Center",
    "region_he": "מרכז",
    "address": "Carlebach 39, Tel Aviv-Yafo",
    "address_he": "קרליבך 39, תל אביב",
    "website": "",
    "instagram": "",
    "notes_en": "Vegan Galilee-style restaurant",
    "notes_he": "מסעדה טבעונית בסגנון גלילי/ערבי",
    "lat": 32.0853,
    "lng": 34.7818
  },
  {
    "id": "miso-ramat-gan",
    "type": "restaurant",
    "typeLabel_he": "מסעדה",
    "name": "Miso",
    "name_he": "מיסו",
    "city": "Ramat Gan",
    "city_he": "רמת גן",
    "region": "Center",
    "region_he": "מרכז",
    "address": "Jabotinsky 62, Ramat Gan",
    "address_he": "ז׳בוטינסקי 62, רמת גן",
    "website": "",
    "instagram": "",
    "notes_en": "Vegan Asian cuisine",
    "notes_he": "אסייתית טבעונית",
    "lat": 32.083,
    "lng": 34.816
  },
  {
    "id": "um-kulthum-hummus-bar-haifa",
    "type": "restaurant",
    "typeLabel_he": "מסעדה",
    "name": "Um Kulthum Hummus Bar",
    "name_he": "אום כולתום חומוס בר",
    "city": "Haifa",
    "city_he": "חיפה",
    "region": "North",
    "region_he": "צפון",
    "address": "Moria 60, Haifa",
    "address_he": "מוריה 60, חיפה",
    "website": "",
    "instagram": "",
    "notes_en": "Vegan hummus bar",
    "notes_he": "חומוס בר טבעוני",
    "lat": 32.794,
    "lng": 34.9896
  },
  {
    "id": "alegria-tlv",
    "type": "restaurant",
    "typeLabel_he": "מסעדה",
    "name": "Alegria",
    "name_he": "אלגריה",
    "city": "Tel Aviv-Yafo",
    "city_he": "תל אביב-יפו",
    "region": "Center",
    "region_he": "מרכז",
    "address": "Ibn Gabirol 165, Tel Aviv-Yafo",
    "address_he": "אבן גבירול 165, תל אביב",
    "website": "",
    "instagram": "",
    "notes_en": "Vegan restaurant",
    "notes_he": "מסעדה טבעונית",
    "lat": 32.0853,
    "lng": 34.7818
  },
  {
    "id": "alf-bar-haifa",
    "type": "restaurant",
    "typeLabel_he": "מסעדה",
    "name": "Alf Bar",
    "name_he": "אלף בר",
    "city": "Haifa",
    "city_he": "חיפה",
    "region": "North",
    "region_he": "צפון",
    "address": "Derech Yaffo 44, Haifa",
    "address_he": "דרך יפו 44, חיפה",
    "website": "",
    "instagram": "",
    "notes_en": "Vegan bar & restaurant",
    "notes_he": "בר-מסעדה טבעוני",
    "lat": 32.794,
    "lng": 34.9896
  },
  {
    "id": "bana-tlv",
    "type": "restaurant",
    "typeLabel_he": "מסעדה",
    "name": "Bana",
    "name_he": "באנה",
    "city": "Tel Aviv-Yafo",
    "city_he": "תל אביב-יפו",
    "region": "Center",
    "region_he": "מרכז",
    "address": "Nahmani 36, Tel Aviv-Yafo",
    "address_he": "נחמני 36, תל אביב",
    "website": "https://banatlv.co.il/",
    "instagram": "",
    "notes_en": "Vegan restaurant",
    "notes_he": "מסעדה טבעונית",
    "lat": 32.0853,
    "lng": 34.7818
  },
  {
    "id": "herzog-tlv",
    "type": "restaurant",
    "typeLabel_he": "מסעדה",
    "name": "Herzog",
    "name_he": "הרצוג",
    "city": "Tel Aviv-Yafo",
    "city_he": "תל אביב-יפו",
    "region": "Center",
    "region_he": "מרכז",
    "address": "Ibn Gabirol 48, Tel Aviv-Yafo",
    "address_he": "אבן גבירול 48, תל אביב",
    "website": "",
    "instagram": "",
    "notes_en": "Healthy vegan restaurant",
    "notes_he": "מסעדה טבעונית ובריאה",
    "lat": 32.0853,
    "lng": 34.7818
  },
  {
    "id": "sabaziya-tlv",
    "type": "restaurant",
    "typeLabel_he": "מסעדה",
    "name": "Sabaziya",
    "name_he": "הסבזיה",
    "city": "Tel Aviv-Yafo",
    "city_he": "תל אביב-יפו",
    "region": "Center",
    "region_he": "מרכז",
    "address": "HaRav Yitzhak Yedidya Frenkel 9, Tel Aviv-Yafo",
    "address_he": "ידידיה פרנקל 9, תל אביב",
    "website": "",
    "instagram": "",
    "notes_en": "Vegan Persian-style bar-restaurant",
    "notes_he": "בר-מסעדה טבעוני עם מטבח פרסי",
    "lat": 32.0853,
    "lng": 34.7818
  },
  {
    "id": "dosa-bar-tlv",
    "type": "restaurant",
    "typeLabel_he": "מסעדה",
    "name": "Dosa Bar",
    "name_he": "דוסה בר",
    "city": "Tel Aviv-Yafo",
    "city_he": "תל אביב-יפו",
    "region": "Center",
    "region_he": "מרכז",
    "address": "Ben Yehuda 188, Tel Aviv-Yafo",
    "address_he": "בן יהודה 188, תל אביב",
    "website": "",
    "instagram": "",
    "notes_en": "Vegan dosa spot",
    "notes_he": "מסעדה טבעונית (הודית/דוסות)",
    "lat": 32.0853,
    "lng": 34.7818
  },
  {
    "id": "jars-and-bowls-tlv",
    "type": "restaurant",
    "typeLabel_he": "מסעדה",
    "name": "Jars & Bowls",
    "name_he": "ג׳ארס אנד בולס",
    "city": "Tel Aviv-Yafo",
    "city_he": "תל אביב-יפו",
    "region": "Center",
    "region_he": "מרכז",
    "address": "Rothschild 1, Tel Aviv-Yafo",
    "address_he": "רוטשילד 1, תל אביב",
    "website": "",
    "instagram": "",
    "notes_en": "Vegan bowls",
    "notes_he": "מסעדה טבעונית (bowls)",
    "lat": 32.0853,
    "lng": 34.7818
  },
  {
    "id": "juice-and-bowl-tlv",
    "type": "restaurant",
    "typeLabel_he": "מסעדה",
    "name": "Juice & Bowl",
    "name_he": "ג׳וס אנד בול",
    "city": "Tel Aviv-Yafo",
    "city_he": "תל אביב-יפו",
    "region": "Center",
    "region_he": "מרכז",
    "address": "Frishman 77, Tel Aviv-Yafo",
    "address_he": "פרישמן 77, תל אביב",
    "website": "",
    "instagram": "",
    "notes_en": "Vegan juices & bowls",
    "notes_he": "מיצים/שייקים/קערות טבעוניות",
    "lat": 32.0853,
    "lng": 34.7818
  },
  {
    "id": "nature-boys-tlv",
    "type": "restaurant",
    "typeLabel_he": "מסעדה",
    "name": "Nature Boys",
    "name_he": "נייטצ׳ור בויז",
    "city": "Tel Aviv-Yafo",
    "city_he": "תל אביב-יפו",
    "region": "Center",
    "region_he": "מרכז",
    "address": "Levontin 30, Tel Aviv-Yafo",
    "address_he": "לבונטין 30, תל אביב",
    "website": "",
    "instagram": "",
    "notes_en": "Vegan fast food",
    "notes_he": "פאסט פוד טבעוני",
    "lat": 32.0853,
    "lng": 34.7818
  },
  {
    "id": "sultana-tlv",
    "type": "restaurant",
    "typeLabel_he": "מסעדה",
    "name": "Sultana",
    "name_he": "סולטנה",
    "city": "Tel Aviv-Yafo",
    "city_he": "תל אביב-יפו",
    "region": "Center",
    "region_he": "מרכז",
    "address": "Ibn Gabirol 52, Tel Aviv-Yafo",
    "address_he": "אבן גבירול 52, תל אביב",
    "website": "",
    "instagram": "",
    "notes_en": "Vegan restaurant",
    "notes_he": "מסעדה טבעונית",
    "lat": 32.0853,
    "lng": 34.7818
  },
  {
    "id": "vegan-xpress-mitzpe-ramon",
    "type": "restaurant",
    "typeLabel_he": "מסעדה",
    "name": "Vegan Xpress",
    "name_he": "ויגן אקספרס",
    "city": "Mitzpe Ramon",
    "city_he": "מצפה רמון",
    "region": "South",
    "region_he": "דרום",
    "address": "Ein Shakh 10/3, Mitzpe Ramon",
    "address_he": "עין שחק 10/3, מצפה רמון",
    "website": "",
    "instagram": "",
    "notes_en": "Vegan food in Mitzpe Ramon",
    "notes_he": "אוכל טבעוני במצפה רמון",
    "lat": 30.611,
    "lng": 34.801
  },
  {
    "id": "rainbow-tlv",
    "type": "restaurant",
    "typeLabel_he": "מסעדה",
    "name": "Rainbow",
    "name_he": "ריינבו",
    "city": "Tel Aviv-Yafo",
    "city_he": "תל אביב-יפו",
    "region": "Center",
    "region_he": "מרכז",
    "address": "Ibn Gabirol 88, Tel Aviv-Yafo",
    "address_he": "אבן גבירול 88, תל אביב",
    "website": "",
    "instagram": "",
    "notes_en": "Vegan fast food",
    "notes_he": "מקום טבעוני (פאסט פוד/המבורגרים)",
    "lat": 32.0853,
    "lng": 34.7818
  },
  {
    "id": "robin-food-haifa",
    "type": "restaurant",
    "typeLabel_he": "מסעדה",
    "name": "Robin Food",
    "name_he": "רובין פוד",
    "city": "Haifa",
    "city_he": "חיפה",
    "region": "North",
    "region_he": "צפון",
    "address": "Sirkin 24, Haifa",
    "address_he": "סירקין 24, חיפה",
    "website": "",
    "instagram": "",
    "notes_en": "Vegan food project/restaurant in Talpiot Market",
    "notes_he": "מיזם אוכל/מסעדה טבעונית בשוק תלפיות",
    "lat": 32.794,
    "lng": 34.9896
  },
  {
    "id": "rozeta-ein-yahav",
    "type": "restaurant",
    "typeLabel_he": "מסעדה",
    "name": "Rozeta",
    "name_he": "רוזטה",
    "city": "Ein Yahav",
    "city_he": "עין יהב",
    "region": "South",
    "region_he": "דרום",
    "address": "Moshav Ein Yahav, Farm 69",
    "address_he": "משק 69, עין יהב",
    "website": "",
    "instagram": "",
    "notes_en": "Vegan spot in the Arava",
    "notes_he": "מקום טבעוני בערבה",
    "lat": 30.656,
    "lng": 35.239
  },
  {
    "id": "anahitupi-karem-maharal",
    "type": "restaurant",
    "typeLabel_he": "מסעדה",
    "name": "AnahiTupi",
    "name_he": "אנהיטופי",
    "city": "Karem Maharal",
    "city_he": "כרם מהר\"ל",
    "region": "North",
    "region_he": "צפון",
    "address": "Karem Maharal",
    "address_he": "כרם מהר\"ל",
    "website": "",
    "instagram": "",
    "notes_en": "Vegan cafe-restaurant",
    "notes_he": "בית קפה-מסעדה טבעוני",
    "lat": 32.649,
    "lng": 34.971
  },
  {
    "id": "green-falafel-ashdod",
    "type": "restaurant",
    "typeLabel_he": "מסעדה",
    "name": "Green Falafel",
    "name_he": "גרין פלאפל",
    "city": "Ashdod",
    "city_he": "אשדוד",
    "region": "South",
    "region_he": "דרום",
    "address": "Nahal Lachish 21, Ashdod",
    "address_he": "נחל לכיש 21, אשדוד",
    "website": "",
    "instagram": "",
    "notes_en": "Vegan falafel & shawarma",
    "notes_he": "פלאפל/שווארמה טבעונית",
    "lat": 31.8014,
    "lng": 34.6435
  },
  {
    "id": "habait-kfar-saba",
    "type": "restaurant",
    "typeLabel_he": "מסעדה",
    "name": "Habayit",
    "name_he": "הבית – מאכלים ביתיים מהטבע",
    "city": "Kfar Saba",
    "city_he": "כפר סבא",
    "region": "Center",
    "region_he": "מרכז",
    "address": "HaTa'as 23, Kfar Saba",
    "address_he": "התע\"ש 23, כפר סבא",
    "website": "",
    "instagram": "",
    "notes_en": "100% vegan home-style food",
    "notes_he": "אוכל ביתי 100% טבעוני",
    "lat": 32.175,
    "lng": 34.9069
  },
  {
    "id": "doobies-haifa",
    "type": "restaurant",
    "typeLabel_he": "מסעדה",
    "name": "Doobie's",
    "name_he": "המקום של דובי",
    "city": "Haifa",
    "city_he": "חיפה",
    "region": "North",
    "region_he": "צפון",
    "address": "Masada 16, Haifa",
    "address_he": "מסדה 16, חיפה",
    "website": "",
    "instagram": "",
    "notes_en": "Vegan bar-restaurant",
    "notes_he": "בר-מסעדה טבעוני",
    "lat": 32.794,
    "lng": 34.9896
  },
  {
    "id": "village-green-tlv",
    "type": "restaurant",
    "typeLabel_he": "מסעדה",
    "name": "Village Green",
    "name_he": "ויליג׳ גרין תל אביב",
    "city": "Tel Aviv-Yafo",
    "city_he": "תל אביב-יפו",
    "region": "Center",
    "region_he": "מרכז",
    "address": "Yehuda HaLevi 85, Tel Aviv-Yafo",
    "address_he": "יהודה הלוי 85, תל אביב",
    "website": "",
    "instagram": "",
    "notes_en": "Tel Aviv vegan branch",
    "notes_he": "סניף טבעוני בת״א",
    "lat": 32.0853,
    "lng": 34.7818
  },
    {
      "id": "vegan-supplies-online",
      "name": "Vegan Supplies",
      "name_he": "Vegan Supplies",
      "type": "shop",
      "typeLabel_he": "חנות אונליין",
      "city": "Online",
      "city_he": "אונליין",
      "region": "Online",
      "region_he": "אונליין",
      "address": "Online (Israel-wide delivery)",
      "address_he": "אונליין (משלוחים לכל הארץ)",
      "lat": null,
      "lng": null,
      "website": "https://vegansupplies.co.il/",
      "instagram": "https://www.instagram.com/vegansupplies/",
      "notes_he": "כשאתם מתארחים/מטיילים ורוצים להזמין למקום הלינה.",
      "notes_en": "Useful for ordering vegan products to wherever you’re staying."
    },
    {
      "id": "village-green-jerusalem",
      "name": "Village Green",
      "name_he": "וילג׳ גרין",
      "type": "restaurant",
      "typeLabel_he": "מסעדה",
      "city": "Jerusalem",
      "city_he": "ירושלים",
      "region": "Jerusalem",
      "region_he": "ירושלים",
      "address": "Yoel Moshe Salomon St, Jerusalem (Downtown)",
      "address_he": "יואל משה סלומון, מרכז העיר, ירושלים",
      "lat": 31.780992,
      "lng": 35.219717,
      "website": "https://www.tripadvisor.com/Restaurant_Review-g293983-d781865-Reviews-Village_Green-Jerusalem_Jerusalem_District.html",
      "instagram": "https://www.instagram.com/villagegreenjerusalem/",
      "notes_he": "אופציה טבעונית בלב מרכז העיר – טובה ליום טיול בירושלים.",
      "notes_en": "Vegan option in downtown Jerusalem — easy stop while sightseeing."
    },
    {
      "id": "miss-v-rg",
      "name": "Miss V",
      "name_he": "מיס וי",
      "type": "restaurant",
      "typeLabel_he": "מסעדה טבעונית",
      "city": "Ramat Gan",
      "city_he": "רמת גן",
      "region": "Center",
      "region_he": "מרכז",
      "address": "Tuval St 16, Ramat Gan",
      "address_he": "תובל 16, רמת גן",
      "lat": 32.0880081765973,
      "lng": 34.8037060066988,
      "website": "",
      "instagram": "",
      "notes_he": "מסעדה טבעונית ברמת גן.",
      "notes_en": ""
    },
    {
      "id": "j17-tlv",
      "name": "J17",
      "name_he": "J17 (הטבעונית)",
      "type": "restaurant",
      "typeLabel_he": "מסעדה",
      "city": "Tel Aviv-Yafo",
      "city_he": "תל אביב-יפו",
      "region": "Center",
      "region_he": "מרכז",
      "address": "Yirmiyahu St 17, Tel Aviv-Yafo",
      "address_he": "ירמיהו 17, תל אביב-יפו",
      "lat": 32.0948816,
      "lng": 34.7759012,
      "website": "https://ontopo.com/he/il/page/41971847",
      "instagram": "https://www.instagram.com/j17vegan/",
      "notes_he": "אווירה ביתית ומנות מנחמות – אחלה לסיום יום בנמל.",
      "notes_en": "Comforting dishes with a homey vibe — great near the port."
    },
    {
      "id": "opa-tlv",
      "name": "Opa",
      "name_he": "אופא",
      "type": "restaurant",
      "typeLabel_he": "מסעדת שף",
      "city": "Tel Aviv-Yafo",
      "city_he": "תל אביב-יפו",
      "region": "Center",
      "region_he": "מרכז",
      "address": "Ha-Khalutzim St 8, Tel Aviv-Yafo",
      "address_he": "החלוצים 8, תל אביב-יפו",
      "lat": 32.0600462,
      "lng": 34.7732208,
      "website": "https://www.opatlv.co.il/",
      "instagram": "https://www.instagram.com/opa_tlv/",
      "notes_he": "ארוחת טעימות שמוקדשת ל״ממלכת הצמחים״. מתאים לערב מיוחד.",
      "notes_en": "Plant-focused chef’s tasting menu — perfect for a special night."
    },
    {
      "id": "alpaca-bar-tlv",
      "name": "Alpaca Bar",
      "name_he": "אלפקה בר",
      "type": "restaurant",
      "typeLabel_he": "בר/מסעדה טבעונית",
      "city": "Tel Aviv-Yafo",
      "city_he": "תל אביב-יפו",
      "region": "Center",
      "region_he": "מרכז",
      "address": "Florentin St 40, Tel Aviv-Yafo",
      "address_he": "פלורנטין 40, תל אביב-יפו",
      "lat": 32.0565055445587,
      "lng": 34.7711583423873,
      "website": "",
      "instagram": "",
      "notes_he": "בר-מסעדה טבעוני עם וייב של לילה בפלורנטין.",
      "notes_en": ""
    },
    {
      "id": "anastasia-tlv",
      "name": "Anastasia",
      "name_he": "אנסטסיה",
      "type": "restaurant",
      "typeLabel_he": "מסעדה/קפה",
      "city": "Tel Aviv-Yafo",
      "city_he": "תל אביב-יפו",
      "region": "Center",
      "region_he": "מרכז",
      "address": "Frishman St 54, Tel Aviv-Yafo",
      "address_he": "פרישמן 54, תל אביב-יפו",
      "lat": 32.079516,
      "lng": 34.774872,
      "website": "https://anastasiatlv.co.il/",
      "instagram": "https://www.instagram.com/anastasiatlv/",
      "notes_he": "בראנץ׳ טבעוני, מאפים וקינוחים. מעולה ל״פתיחת סופ״ש״ בת״א.",
      "notes_en": "Vegan café with brunch, pastries and desserts — a classic Tel Aviv stop."
    },
    {
      "id": "goodness-tlv",
      "name": "Goodness",
      "name_he": "גודנס",
      "type": "restaurant",
      "typeLabel_he": "אוכל מהיר בריא",
      "city": "Tel Aviv-Yafo",
      "city_he": "תל אביב-יפו",
      "region": "Center",
      "region_he": "מרכז",
      "address": "King George St 32, Tel Aviv-Yafo",
      "address_he": "קינג ג'ורג' 32, תל אביב-יפו",
      "lat": 32.0733474673479,
      "lng": 34.7746361460358,
      "website": "https://goodness.co.il/",
      "instagram": "https://www.instagram.com/goodness.il/",
      "notes_he": "כשבא לכם משהו מהיר: קערות, סלטים, סנדוויצ׳ים וקינוחים.",
      "notes_en": "Quick, feel-good vegan bowls, salads, sandwiches and sweets."
    },
    {
      "id": "green-roll-tlv",
      "name": "Green Roll",
      "name_he": "גרין רול",
      "type": "restaurant",
      "typeLabel_he": "מסעדה טבעונית",
      "city": "Tel Aviv-Yafo",
      "city_he": "תל אביב-יפו",
      "region": "Center",
      "region_he": "מרכז",
      "address": "Ahad Ha'am St 15, Tel Aviv-Yafo",
      "address_he": "אחד העם 15, תל אביב-יפו",
      "lat": null,
      "lng": null,
      "website": "https://thegreenroll.co.il/",
      "instagram": "",
      "notes_he": "מסעדת סושי טבעונית (100% טבעוני). אם הסיכה לא מופיעה מיד – זה ייטען אוטומטית לפי הכתובת.",
      "notes_en": ""
    },
    {
      "id": "green-cat-tlv",
      "name": "The Green Cat",
      "name_he": "החתול הירוק",
      "type": "restaurant",
      "typeLabel_he": "מסעדה טבעונית",
      "city": "Tel Aviv-Yafo",
      "city_he": "תל אביב-יפו",
      "region": "Center",
      "region_he": "מרכז",
      "address": "Levontin St 9, Tel Aviv-Yafo",
      "address_he": "לבונטין 9, תל אביב-יפו",
      "lat": null,
      "lng": null,
      "website": "",
      "instagram": "",
      "notes_he": "אוכל טבעוני בלב העיר. אם הסיכה לא מופיעה מיד – זה ייטען אוטומטית לפי הכתובת.",
      "notes_en": ""
    },
    {
      "id": "market-vegan-dizengoff",
      "name": "Market Vegan Dizengoff",
      "name_he": "מרקט טבעוני דיזינגוף",
      "type": "shop",
      "typeLabel_he": "מכולת/מעדניה טבעונית",
      "city": "Tel Aviv-Yafo",
      "city_he": "תל אביב-יפו",
      "region": "Center",
      "region_he": "מרכז",
      "address": "Dizengoff St 140, Tel Aviv-Yafo",
      "address_he": "דיזינגוף 140, תל אביב-יפו",
      "lat": 32.0824,
      "lng": 34.77417,
      "website": "https://www.waze.com/he/live-map/directions/il/%D7%9E%D7%97%D7%95%D7%96-%D7%AA%D7%9C-%D7%90%D7%91%D7%99%D7%91/%D7%AA%D7%9C-%D7%90%D7%91%D7%99%D7%91-%D7%99%D7%A4%D7%95/%D7%9E%D7%A8%D7%A7%D7%98-%D7%98%D7%91%D7%A2%D7%95%D7%A0%D7%99-%D7%93%D7%99%D7%96%D7%99%D7%A0%D7%92%D7%95%D7%A3?to=place.ChIJQSQD9odLHRURiEbgP4gc1Sg",
      "instagram": "https://www.instagram.com/marketlv.vegan/",
      "notes_he": "עצירה לשופינג: גבינות טבעוניות, חטיפים, מצרכים וקפואים.",
      "notes_en": "Vegan grocery stop for cheeses, snacks, staples and frozen items."
    },
    {
      "id": "meshek-barzilay-tlv",
      "name": "Meshek Barzilay",
      "name_he": "משק ברזילי",
      "type": "restaurant",
      "typeLabel_he": "מסעדה + מעדניה",
      "city": "Tel Aviv-Yafo",
      "city_he": "תל אביב-יפו",
      "region": "Center",
      "region_he": "מרכז",
      "address": "Ahad Ha'am St 6, Tel Aviv-Yafo",
      "address_he": "אחד העם 6, תל אביב-יפו",
      "lat": 32.063533,
      "lng": 34.768655,
      "website": "https://www.meshekbarzilay.co.il/",
      "instagram": "https://www.instagram.com/meshekbarzilay/",
      "notes_he": "מקום טבעוני ותיק עם תפריט עונתי ואווירה ירוקה בנווה צדק.",
      "notes_en": "Long-running vegan spot with seasonal dishes in Neve Tzedek."
    },
    {
      "id": "neroli-tlv",
      "name": "Neroli",
      "name_he": "נרולי",
      "type": "shop",
      "typeLabel_he": "חנות בריאות + דיינר",
      "city": "Tel Aviv-Yafo",
      "city_he": "תל אביב-יפו",
      "region": "Center",
      "region_he": "מרכז",
      "address": "Lilienblum St 3, Tel Aviv-Yafo",
      "address_he": "ליליינבלום 3, תל אביב-יפו",
      "lat": 32.0626,
      "lng": 34.7677,
      "website": "https://www.neroli.co.il/",
      "instagram": "https://www.instagram.com/neroli.tlv/",
      "notes_he": "חנות בריאות עם מטבח טבעוני (Raw/Organic) ומשקאות.",
      "notes_en": "Health-food store with a vegan (raw/organic) kitchen and drinks."
    },
    {
      "id": "hummus-bar-haifa",
      "name": "Hummus BAR",
      "name_he": "חומוס BAR (חיפה)",
      "type": "restaurant",
      "typeLabel_he": "מסעדה",
      "city": "Haifa",
      "city_he": "חיפה",
      "region": "North",
      "region_he": "צפון",
      "address": "Natanzon St 22, Haifa",
      "address_he": "נתנזון 22, חיפה",
      "lat": 32.816976,
      "lng": 35.000995,
      "website": "https://easy.co.il/en/page/10043901",
      "instagram": "https://www.instagram.com/hummusbarhaifa/",
      "notes_he": "אחד המקומות הטבעוניים המוכרים בחיפה – חומוס וכל השואו מסביב.",
      "notes_en": "Popular vegan spot in Haifa with hummus and hearty mains."
    },
    {
      "id": "sashimi-asiatit-haifa",
      "name": "Sashimi (Vegan)",
      "name_he": "סשימי אסייאתית",
      "type": "restaurant",
      "typeLabel_he": "מסעדה טבעונית",
      "city": "Haifa",
      "city_he": "חיפה",
      "region": "North",
      "region_he": "צפון",
      "address": "Sha'ar Palmer St 3, Haifa",
      "address_he": "שער פלמר 3, חיפה",
      "lat": null,
      "lng": null,
      "website": "",
      "instagram": "",
      "notes_he": "מקום אסייתי טבעוני בעיר התחתית. אם הסיכה לא מופיעה מיד – זה ייטען אוטומטית לפי הכתובת.",
      "notes_en": ""
    },
    {
      "id": "yamima-phk",
      "name": "Yamima",
      "name_he": "יאמימה",
      "type": "restaurant",
      "typeLabel_he": "פודטראק/מסעדה",
      "city": "Pardes Hanna-Karkur",
      "city_he": "פרדס חנה-כרכור",
      "region": "North",
      "region_he": "צפון",
      "address": "HaMeyasdim St 26, Pardes Hanna-Karkur",
      "address_he": "המייסדים 26, פרדס חנה-כרכור",
      "lat": 32.4728028,
      "lng": 34.9742001,
      "website": "https://easy.co.il/en/page/10049221",
      "instagram": "https://www.instagram.com/yamima_vegan/",
      "notes_he": "שווארמה סייטן ועוד מנות טבעוניות מושקעות – שווה קפיצה לצפון.",
      "notes_en": "Seitan shawarma and more — a fun North/PHK stop."
    }
  ]
}
